<?xml version="1.0" encoding="UTF-8" standalone="no"?>
<kml xmlns="http://earth.google.com/kml/2.2">
<Document>
<name>YouBike bicycle-sharing stations</name>
<description>Created by YoutubeKML (http://)</description>
<Folder>
<name>西屯區</name>
<Placemark>
<name>逢甲大學</name>
<Snippet>台中市福星路/逢甲路口(潮洋機車停車場)</Snippet>
<description>台中市福星路/逢甲路口(潮洋機車停車場)</description>
<Point>
<coordinates>120.645010,24.178695,0.000000</coordinates>
</Point>
</Placemark>
<Placemark>
<name>秋紅谷</name>
<Snippet>台中市朝富路/朝馬路口(國光客運朝馬站對面)</Snippet>
<description>台中市朝富路/朝馬路口(國光客運朝馬站對面)</description>
<Point>
<coordinates>120.638895,24.167898,0.000000</coordinates>
</Point>
</Placemark>
<Placemark>
<name>市政府(文心樓)</name>
<Snippet>台中市文心路二段645號旁</Snippet>
<description>台中市文心路二段645號旁</description>
<Point>
<coordinates>120.648701,24.161438,0.000000</coordinates>
</Point>
</Placemark>
<Placemark>
<name>漢翔福星北路口</name>
<Snippet>漢翔路/福星北路交叉路口</Snippet>
<description>漢翔路/福星北路交叉路口</description>
<Point>
<coordinates>120.644423,24.185214,0.000000</coordinates>
</Point>
</Placemark>
<Placemark>
<name>福星公園</name>
<Snippet>寶慶街50巷/河南路二段301巷</Snippet>
<description>寶慶街50巷/河南路二段301巷</description>
<Point>
<coordinates>120.6481,24.172421,0.000000</coordinates>
</Point>
</Placemark>
<Placemark>
<name>櫻花棒球場</name>
<Snippet>櫻花路/洛陽路口</Snippet>
<description>櫻花路/洛陽路口</description>
<Point>
<coordinates>120.653109,24.168671,0.000000</coordinates>
</Point>
</Placemark>
<Placemark>
<name>重慶公園</name>
<Snippet>西屯路二段/天水西六街</Snippet>
<description>西屯路二段/天水西六街</description>
<Point>
<coordinates>120.655551552772,24.1658893012632,0.000000</coordinates>
</Point>
</Placemark>
<Placemark>
<name>頂何厝</name>
<Snippet>臺灣大道二段/東興路三段路口</Snippet>
<description>臺灣大道二段/東興路三段路口</description>
<Point>
<coordinates>120.655825,24.159079,0.000000</coordinates>
</Point>
</Placemark>
<Placemark>
<name>新光/遠百</name>
<Snippet>臺灣大道三段/惠來路二段</Snippet>
<description>臺灣大道三段/惠來路二段</description>
<Point>
<coordinates>120.642929,24.166146,0.000000</coordinates>
</Point>
</Placemark>
<Placemark>
<name>青海逢甲路口</name>
<Snippet>青海路二段/逢甲路口</Snippet>
<description>青海路二段/逢甲路口</description>
<Point>
<coordinates>120.639231,24.174652,0.000000</coordinates>
</Point>
</Placemark>
<Placemark>
<name>大隆東興路口</name>
<Snippet>大隆路40號前</Snippet>
<description>大隆路40號前</description>
<Point>
<coordinates>120.654096,24.155731,0.000000</coordinates>
</Point>
</Placemark>
<Placemark>
<name>國立臺中文華高中</name>
<Snippet>文心路三段/河南路一段口</Snippet>
<description>文心路三段/河南路一段口</description>
<Point>
<coordinates>120.660673,24.171233,0.000000</coordinates>
</Point>
</Placemark>
<Placemark>
<name>上石公園</name>
<Snippet>西屯路二段/上石北五巷口</Snippet>
<description>西屯路二段/上石北五巷口</description>
<Point>
<coordinates>120.644939,24.172842,0.000000</coordinates>
</Point>
</Placemark>
<Placemark>
<name>市政公園停車場</name>
<Snippet>市政北五路/惠中路一段口</Snippet>
<description>市政北五路/惠中路一段口</description>
<Point>
<coordinates>120.644537,24.160994,0.000000</coordinates>
</Point>
</Placemark>
<Placemark>
<name>臺中國家歌劇院</name>
<Snippet>惠民路/市政北六路口</Snippet>
<description>惠民路/市政北六路口</description>
<Point>
<coordinates>120.640120,24.164070,0.000000</coordinates>
</Point>
</Placemark>
<Placemark>
<name>大鵬國小</name>
<Snippet>大鵬路/大鵬路59巷口</Snippet>
<description>大鵬路/大鵬路59巷口</description>
<Point>
<coordinates>120.66567,24.17811,0.000000</coordinates>
</Point>
</Placemark>
<Placemark>
<name>協和停車場</name>
<Snippet>安和西路/福玄路口</Snippet>
<description>安和西路/福玄路口</description>
<Point>
<coordinates>120.62188,24.17754,0.000000</coordinates>
</Point>
</Placemark>
<Placemark>
<name>西大墩公園</name>
<Snippet>福科一街/福科二路口(西北側)</Snippet>
<description>福科一街/福科二路口(西北側)</description>
<Point>
<coordinates>120.635770,24.176920,0.000000</coordinates>
</Point>
</Placemark>
<Placemark>
<name>福科國民中學</name>
<Snippet>西屯路三段/玉門路370巷口</Snippet>
<description>西屯路三段/玉門路370巷口</description>
<Point>
<coordinates>120.61381,24.18972,0.000000</coordinates>
</Point>
</Placemark>
<Placemark>
<name>潮洋環保公園</name>
<Snippet>朝貴路/市政北二路口</Snippet>
<description>朝貴路/市政北二路口</description>
<Point>
<coordinates>120.633370,24.165920,0.000000</coordinates>
</Point>
</Placemark>
<Placemark>
<name>上安公園</name>
<Snippet>上安路/上仁街口</Snippet>
<description>上安路/上仁街口</description>
<Point>
<coordinates>120.64065,24.17065,0.000000</coordinates>
</Point>
</Placemark>
<Placemark>
<name>世斌公園</name>
<Snippet>永福路/福安路88巷口</Snippet>
<description>永福路/福安路88巷口</description>
<Point>
<coordinates>120.61962,24.18219,0.000000</coordinates>
</Point>
</Placemark>
<Placemark>
<name>大仁公園</name>
<Snippet>甘肅路一段/甘州六街口</Snippet>
<description>甘肅路一段/甘州六街口</description>
<Point>
<coordinates>120.65929,24.16569,0.000000</coordinates>
</Point>
</Placemark>
<Placemark>
<name>臺灣大道玉門路口</name>
<Snippet>臺灣大道四段/玉門路口</Snippet>
<description>臺灣大道四段/玉門路口</description>
<Point>
<coordinates>120.60975,24.18425,0.000000</coordinates>
</Point>
</Placemark>
<Placemark>
<name>國安一號公園</name>
<Snippet>國安一路/福林路口</Snippet>
<description>國安一路/福林路口</description>
<Point>
<coordinates>120.61472,24.19061,0.000000</coordinates>
</Point>
</Placemark>
<Placemark>
<name>三信公園</name>
<Snippet>漢口路二段/寧漢三街口</Snippet>
<description>漢口路二段/寧漢三街口</description>
<Point>
<coordinates>120.66372,24.16623,0.000000</coordinates>
</Point>
</Placemark>
<Placemark>
<name>臺灣大道福林路口</name>
<Snippet>臺灣大道四段/福林路口</Snippet>
<description>臺灣大道四段/福林路口</description>
<Point>
<coordinates>120.61377,24.18361,0.000000</coordinates>
</Point>
</Placemark>
</Folder>
<Folder>
<name>南屯區</name>
<Placemark>
<name>公益大英街口</name>
<Snippet>公益路二段/大英街口(星巴克前)</Snippet>
<description>公益路二段/大英街口(星巴克前)</description>
<Point>
<coordinates>120.648481,24.150814,0.000000</coordinates>
</Point>
</Placemark>
<Placemark>
<name>大墩七街河南路口</name>
<Snippet>大墩七街/河南路四段口</Snippet>
<description>大墩七街/河南路四段口</description>
<Point>
<coordinates>120.639554,24.144259,0.000000</coordinates>
</Point>
</Placemark>
<Placemark>
<name>文心森林公園</name>
<Snippet>文心路一段/向上路二段口</Snippet>
<description>文心路一段/向上路二段口</description>
<Point>
<coordinates>120.646119,24.146743,0.000000</coordinates>
</Point>
</Placemark>
<Placemark>
<name>五權西文心路口</name>
<Snippet>五權西路二段/文心路一段路口</Snippet>
<description>五權西路二段/文心路一段路口</description>
<Point>
<coordinates>120.646885,24.139937,0.000000</coordinates>
</Point>
</Placemark>
<Placemark>
<name>黎明國中</name>
<Snippet>黎明路二段/市政南二路口</Snippet>
<description>黎明路二段/市政南二路口</description>
<Point>
<coordinates>120.634399,24.156493,0.000000</coordinates>
</Point>
</Placemark>
<Placemark>
<name>豐樂雕塑公園</name>
<Snippet>文心南五路/向心南路口</Snippet>
<description>文心南五路/向心南路口</description>
<Point>
<coordinates>120.643470,24.132054,0.000000</coordinates>
</Point>
</Placemark>
<Placemark>
<name>惠文高中</name>
<Snippet>大業路/惠中路二段口</Snippet>
<description>大業路/惠中路二段口</description>
<Point>
<coordinates>120.640400,24.153645,0.000000</coordinates>
</Point>
</Placemark>
<Placemark>
<name>向心兒童公園</name>
<Snippet>文心南二路/向心南路口</Snippet>
<description>文心南二路/向心南路口</description>
<Point>
<coordinates>120.644625,24.13593,0.000000</coordinates>
</Point>
</Placemark>
<Placemark>
<name>大業公園</name>
<Snippet>大業路/大進街口</Snippet>
<description>大業路/大進街口</description>
<Point>
<coordinates>120.651108,24.153686,0.000000</coordinates>
</Point>
</Placemark>
<Placemark>
<name>楓香公園</name>
<Snippet>楓樹西街/楓樹南街口</Snippet>
<description>楓樹西街/楓樹南街口</description>
<Point>
<coordinates>120.62871,24.11578,0.000000</coordinates>
</Point>
</Placemark>
<Placemark>
<name>鎮平公園</name>
<Snippet>楓樹西街366巷/黎明路一段口</Snippet>
<description>楓樹西街366巷/黎明路一段口</description>
<Point>
<coordinates>120.62915,24.12057,0.000000</coordinates>
</Point>
</Placemark>
<Placemark>
<name>豐富公園</name>
<Snippet>東興路一段/文心南五路一段口</Snippet>
<description>東興路一段/文心南五路一段口</description>
<Point>
<coordinates>120.653260,24.131700,0.000000</coordinates>
</Point>
</Placemark>
<Placemark>
<name>大興公園</name>
<Snippet>南屯路二段/精誠南路口</Snippet>
<description>南屯路二段/精誠南路口</description>
<Point>
<coordinates>120.65436,24.13526,0.000000</coordinates>
</Point>
</Placemark>
<Placemark>
<name>正心兒童公園</name>
<Snippet>大墩南路/文心南二路口</Snippet>
<description>大墩南路/文心南二路口</description>
<Point>
<coordinates>120.64998,24.13593,0.000000</coordinates>
</Point>
</Placemark>
<Placemark>
<name>萬和國中</name>
<Snippet>文心南三路/豐安街口</Snippet>
<description>文心南三路/豐安街口</description>
<Point>
<coordinates>120.63961,24.13354,0.000000</coordinates>
</Point>
</Placemark>
<Placemark>
<name>南苑公園</name>
<Snippet>文心南路/文心南五路一段口</Snippet>
<description>文心南路/文心南五路一段口</description>
<Point>
<coordinates>120.64696,24.13212,0.000000</coordinates>
</Point>
</Placemark>
<Placemark>
<name>萬和宮</name>
<Snippet>萬和路一段/文昌街口</Snippet>
<description>萬和路一段/文昌街口</description>
<Point>
<coordinates>120.63903,24.13768,0.000000</coordinates>
</Point>
</Placemark>
<Placemark>
<name>黎光公園</name>
<Snippet>干城街/懷德街口</Snippet>
<description>干城街/懷德街口</description>
<Point>
<coordinates>120.63052,24.15187,0.000000</coordinates>
</Point>
</Placemark>
<Placemark>
<name>保安公園</name>
<Snippet>文山五街/保安五街口</Snippet>
<description>文山五街/保安五街口</description>
<Point>
<coordinates>120.6122,24.14725,0.000000</coordinates>
</Point>
</Placemark>
<Placemark>
<name>春社公園</name>
<Snippet>永春路/永春北路口</Snippet>
<description>永春路/永春北路口</description>
<Point>
<coordinates>120.61049,24.14051,0.000000</coordinates>
</Point>
</Placemark>
<Placemark>
<name>南屯區公所</name>
<Snippet>永春東路/永春東路515巷</Snippet>
<description>永春東路/永春東路515巷</description>
<Point>
<coordinates>120.64454,24.13467,0.000000</coordinates>
</Point>
</Placemark>
</Folder>
<Folder>
<name>西區</name>
<Placemark>
<name>忠明國小</name>
<Snippet>臺灣大道二段/忠明南路口</Snippet>
<description>臺灣大道二段/忠明南路口</description>
<Point>
<coordinates>120.659171,24.156769,0.000000</coordinates>
</Point>
</Placemark>
<Placemark>
<name>科博館/金典酒店</name>
<Snippet>臺灣大道一段/健行路口</Snippet>
<description>臺灣大道一段/健行路口</description>
<Point>
<coordinates>120.66304,24.155525,0.000000</coordinates>
</Point>
</Placemark>
<Placemark>
<name>中正國小</name>
<Snippet>英才路/臺灣大道二段179巷</Snippet>
<description>英才路/臺灣大道二段179巷</description>
<Point>
<coordinates>120.666281,24.152483,0.000000</coordinates>
</Point>
</Placemark>
<Placemark>
<name>茄苳腳</name>
<Snippet>臺灣大道一段/梅川東路二段</Snippet>
<description>臺灣大道一段/梅川東路二段</description>
<Point>
<coordinates>120.671377,24.150107,0.000000</coordinates>
</Point>
</Placemark>
<Placemark>
<name>萬壽棒球場</name>
<Snippet>向上路一段/大進街口</Snippet>
<description>向上路一段/大進街口</description>
<Point>
<coordinates>120.650534,24.146568,0.000000</coordinates>
</Point>
</Placemark>
<Placemark>
<name>公益公園</name>
<Snippet>忠明南路/公益路口</Snippet>
<description>忠明南路/公益路口</description>
<Point>
<coordinates>120.657475,24.150423,0.000000</coordinates>
</Point>
</Placemark>
<Placemark>
<name>大墩文化中心</name>
<Snippet>五權路/英才路口</Snippet>
<description>五權路/英才路口</description>
<Point>
<coordinates>120.666531,24.141249,0.000000</coordinates>
</Point>
</Placemark>
<Placemark>
<name>臺中州廳</name>
<Snippet>市府路/民權路口</Snippet>
<description>市府路/民權路口</description>
<Point>
<coordinates>120.678756,24.138299,0.000000</coordinates>
</Point>
</Placemark>
<Placemark>
<name>臺中教育大學</name>
<Snippet>五權路/民權路口</Snippet>
<description>五權路/民權路口</description>
<Point>
<coordinates>120.671185,24.145214,0.000000</coordinates>
</Point>
</Placemark>
<Placemark>
<name>中山地政事務所</name>
<Snippet>三民路一段/三民路一段156巷口</Snippet>
<description>三民路一段/三民路一段156巷口</description>
<Point>
<coordinates>120.673707,24.13654,0.000000</coordinates>
</Point>
</Placemark>
<Placemark>
<name>市民廣場</name>
<Snippet>中興街/公益路口</Snippet>
<description>中興街/公益路口</description>
<Point>
<coordinates>120.663045,24.150621,0.000000</coordinates>
</Point>
</Placemark>
<Placemark>
<name>經國園道</name>
<Snippet>向上路一段/英才路口</Snippet>
<description>向上路一段/英才路口</description>
<Point>
<coordinates>120.664773,24.146778,0.000000</coordinates>
</Point>
</Placemark>
<Placemark>
<name>國立臺灣美術館</name>
<Snippet>五權西路一段/美村路一段口</Snippet>
<description>五權西路一段/美村路一段口</description>
<Point>
<coordinates>120.661836,24.140682,0.000000</coordinates>
</Point>
</Placemark>
<Placemark>
<name>忠誠公園</name>
<Snippet>忠明路/華美西街一段口</Snippet>
<description>忠明路/華美西街一段口</description>
<Point>
<coordinates>120.662753,24.161092,0.000000</coordinates>
</Point>
</Placemark>
<Placemark>
<name>大忠公園</name>
<Snippet>精誠三十街/大忠街口</Snippet>
<description>精誠三十街/大忠街口</description>
<Point>
<coordinates>120.656200,24.143380,0.000000</coordinates>
</Point>
</Placemark>
<Placemark>
<name>臺中女中</name>
<Snippet>自由路一段/康樂街口</Snippet>
<description>自由路一段/康樂街口</description>
<Point>
<coordinates>120.67733,24.13557,0.000000</coordinates>
</Point>
</Placemark>
<Placemark>
<name>公館公園</name>
<Snippet>三民路一段/自由路一段口</Snippet>
<description>三民路一段/自由路一段口</description>
<Point>
<coordinates>120.66929,24.13239,0.000000</coordinates>
</Point>
</Placemark>
<Placemark>
<name>土庫公園</name>
<Snippet>五權五街/五權西六街136巷口</Snippet>
<description>五權五街/五權西六街136巷口</description>
<Point>
<coordinates>120.65786,24.13652,0.000000</coordinates>
</Point>
</Placemark>
</Folder>
<Folder>
<name>中區</name>
<Placemark>
<name>臺中仁愛醫院</name>
<Snippet>臺灣大道一段/興中街口</Snippet>
<description>臺灣大道一段/興中街口</description>
<Point>
<coordinates>120.67822,24.1437,0.000000</coordinates>
</Point>
</Placemark>
<Placemark>
<name>臺中火車站</name>
<Snippet>建國路/中山路口</Snippet>
<description>建國路/中山路口</description>
<Point>
<coordinates>120.683819,24.136704,0.000000</coordinates>
</Point>
</Placemark>
<Placemark>
<name>柳川東中華路口</name>
<Snippet>柳川東路四段/中華路二段口</Snippet>
<description>柳川東路四段/中華路二段口</description>
<Point>
<coordinates>120.678300,24.146920,0.000000</coordinates>
</Point>
</Placemark>
</Folder>
<Folder>
<name>北區</name>
<Placemark>
<name>博館育德路口</name>
<Snippet>博館路/育德路口</Snippet>
<description>博館路/育德路口</description>
<Point>
<coordinates>120.669111,24.157464,0.000000</coordinates>
</Point>
</Placemark>
<Placemark>
<name>英士公園</name>
<Snippet>日興街/英士路口</Snippet>
<description>日興街/英士路口</description>
<Point>
<coordinates>120.675577,24.151149,0.000000</coordinates>
</Point>
</Placemark>
<Placemark>
<name>臺中公園</name>
<Snippet>公園路/自由路二段口</Snippet>
<description>公園路/自由路二段口</description>
<Point>
<coordinates>120.684231,24.142596,0.000000</coordinates>
</Point>
</Placemark>
<Placemark>
<name>臺中孔廟</name>
<Snippet>雙十路二段/力行路口</Snippet>
<description>雙十路二段/力行路口</description>
<Point>
<coordinates>120.689117,24.153274,0.000000</coordinates>
</Point>
</Placemark>
<Placemark>
<name>育德梅川東路口</name>
<Snippet>育德路/梅川東路三段口</Snippet>
<description>育德路/梅川東路三段口</description>
<Point>
<coordinates>120.67547,24.15748,0.000000</coordinates>
</Point>
</Placemark>
<Placemark>
<name>太原北中清路口</name>
<Snippet>太原北路/中清路一段口</Snippet>
<description>太原北路/中清路一段口</description>
<Point>
<coordinates>120.673279,24.165115,0.000000</coordinates>
</Point>
</Placemark>
<Placemark>
<name>學士育德路口</name>
<Snippet>學士路/育德路口(中正停車場廣場)</Snippet>
<description>學士路/育德路口(中正停車場廣場)</description>
<Point>
<coordinates>120.681155,24.157757,0.000000</coordinates>
</Point>
</Placemark>
<Placemark>
<name>國立自然科學博物館</name>
<Snippet>博館路101號對面</Snippet>
<description>博館路101號對面</description>
<Point>
<coordinates>120.665901,24.156199,0.000000</coordinates>
</Point>
</Placemark>
<Placemark>
<name>北區行政大樓</name>
<Snippet>永興街/太原路二段口</Snippet>
<description>永興街/太原路二段口</description>
<Point>
<coordinates>120.682416,24.166078,0.000000</coordinates>
</Point>
</Placemark>
<Placemark>
<name>臺中一中</name>
<Snippet>育才街/尊賢街口</Snippet>
<description>育才街/尊賢街口</description>
<Point>
<coordinates>120.686487,24.149175,0.000000</coordinates>
</Point>
</Placemark>
<Placemark>
<name>賴明公園</name>
<Snippet>梅川東路三段/漢口路四段口</Snippet>
<description>梅川東路三段/漢口路四段口</description>
<Point>
<coordinates>120.678381,24.167109,0.000000</coordinates>
</Point>
</Placemark>
<Placemark>
<name>英才公園</name>
<Snippet>英才路/民權路口</Snippet>
<description>英才路/民權路口</description>
<Point>
<coordinates>120.670979,24.155624,0.000000</coordinates>
</Point>
</Placemark>
<Placemark>
<name>中德公園</name>
<Snippet>忠明六街/忠太西路口</Snippet>
<description>忠明六街/忠太西路口</description>
<Point>
<coordinates>120.668407,24.163681,0.000000</coordinates>
</Point>
</Placemark>
<Placemark>
<name>健行國小</name>
<Snippet>健行路/健行路664巷口</Snippet>
<description>健行路/健行路664巷口</description>
<Point>
<coordinates>120.674100,24.159280,0.000000</coordinates>
</Point>
</Placemark>
<Placemark>
<name>太原華美街口</name>
<Snippet>太原路一段/華美街二段口</Snippet>
<description>太原路一段/華美街二段口</description>
<Point>
<coordinates>120.66496,24.16482,0.000000</coordinates>
</Point>
</Placemark>
<Placemark>
<name>山西公園</name>
<Snippet>山西路二段/北平路二段口</Snippet>
<description>山西路二段/北平路二段口</description>
<Point>
<coordinates>120.675900,24.171060,0.000000</coordinates>
</Point>
</Placemark>
<Placemark>
<name>興進園道</name>
<Snippet>興進園道</Snippet>
<description>興進園道</description>
<Point>
<coordinates>120.696730,24.155540,0.000000</coordinates>
</Point>
</Placemark>
<Placemark>
<name>北區太平國小</name>
<Snippet>太平路/大誠街口</Snippet>
<description>太平路/大誠街口</description>
<Point>
<coordinates>120.681610,24.148590,0.000000</coordinates>
</Point>
</Placemark>
<Placemark>
<name>長青公園</name>
<Snippet>北平二街/北平路一段口</Snippet>
<description>北平二街/北平路一段口</description>
<Point>
<coordinates>120.6695,24.17187,0.000000</coordinates>
</Point>
</Placemark>
<Placemark>
<name>雙十育樂街口</name>
<Snippet>雙十路二段/育樂街口</Snippet>
<description>雙十路二段/育樂街口</description>
<Point>
<coordinates>120.69097,24.15778,0.000000</coordinates>
</Point>
</Placemark>
<Placemark>
<name>曉明公園</name>
<Snippet>陜西東五街/漢陽西街口</Snippet>
<description>陜西東五街/漢陽西街口</description>
<Point>
<coordinates>120.67118,24.16808,0.000000</coordinates>
</Point>
</Placemark>
<Placemark>
<name>武昌公園</name>
<Snippet>陜西路/武昌路口</Snippet>
<description>陜西路/武昌路口</description>
<Point>
<coordinates>120.66824,24.16906,0.000000</coordinates>
</Point>
</Placemark>
<Placemark>
<name>梅川園道</name>
<Snippet>梅川東路三段/尚德街127巷口</Snippet>
<description>梅川東路三段/尚德街127巷口</description>
<Point>
<coordinates>120.6766,24.16158,0.000000</coordinates>
</Point>
</Placemark>
<Placemark>
<name>進化廣場</name>
<Snippet>興進路/育興街口</Snippet>
<description>興進路/育興街口</description>
<Point>
<coordinates>120.69332,24.15525,0.000000</coordinates>
</Point>
</Placemark>
</Folder>
<Folder>
<name>北屯區</name>
<Placemark>
<name>三光太原路口</name>
<Snippet>三光巷/太原路三段口</Snippet>
<description>三光巷/太原路三段口</description>
<Point>
<coordinates>120.696704,24.164742,0.000000</coordinates>
</Point>
</Placemark>
<Placemark>
<name>北屯兒童公園</name>
<Snippet>興安路一段/北平路四段口</Snippet>
<description>興安路一段/北平路四段口</description>
<Point>
<coordinates>120.694267,24.170187,0.000000</coordinates>
</Point>
</Placemark>
<Placemark>
<name>民俗公園</name>
<Snippet>熱河路二段/大連路二段口</Snippet>
<description>熱河路二段/大連路二段口</description>
<Point>
<coordinates>120.688075,24.175306,0.000000</coordinates>
</Point>
</Placemark>
<Placemark>
<name>北屯區文昌國小</name>
<Snippet>興安路一段/青島路四段口</Snippet>
<description>興安路一段/青島路四段口</description>
<Point>
<coordinates>120.691520,24.167120,0.000000</coordinates>
</Point>
</Placemark>
<Placemark>
<name>三甲公園</name>
<Snippet>旱溪東路三段/景賢南一路口</Snippet>
<description>旱溪東路三段/景賢南一路口</description>
<Point>
<coordinates>120.706530,24.166210,0.000000</coordinates>
</Point>
</Placemark>
<Placemark>
<name>敦化公園</name>
<Snippet>后庄七街/敦化路一段口</Snippet>
<description>后庄七街/敦化路一段口</description>
<Point>
<coordinates>120.667520,24.187820,0.000000</coordinates>
</Point>
</Placemark>
<Placemark>
<name>臺中市籃球運動中心</name>
<Snippet>景賢六路/景賢南一路口</Snippet>
<description>景賢六路/景賢南一路口</description>
<Point>
<coordinates>120.711840,24.166380,0.000000</coordinates>
</Point>
</Placemark>
<Placemark>
<name>東光國小</name>
<Snippet>東山路一段91巷/東山路一段123巷31弄口</Snippet>
<description>東山路一段91巷/東山路一段123巷31弄口</description>
<Point>
<coordinates>120.70236,24.17178,0.000000</coordinates>
</Point>
</Placemark>
<Placemark>
<name>北屯區公所</name>
<Snippet>崇德路三段/崇德八路一段口</Snippet>
<description>崇德路三段/崇德八路一段口</description>
<Point>
<coordinates>120.68631,24.18299,0.000000</coordinates>
</Point>
</Placemark>
<Placemark>
<name>大德公園</name>
<Snippet>平德路/平德路1巷口</Snippet>
<description>平德路/平德路1巷口</description>
<Point>
<coordinates>120.67207,24.18161,0.000000</coordinates>
</Point>
</Placemark>
<Placemark>
<name>新都生態公園</name>
<Snippet>軍福十五路/祥順路二段口</Snippet>
<description>軍福十五路/祥順路二段口</description>
<Point>
<coordinates>120.730080,24.173800,0.000000</coordinates>
</Point>
</Placemark>
<Placemark>
<name>四張犁農村公園</name>
<Snippet>四平路/豐樂路二段口</Snippet>
<description>四平路/豐樂路二段口</description>
<Point>
<coordinates>120.682160,24.194460,0.000000</coordinates>
</Point>
</Placemark>
<Placemark>
<name>四張犁圖書館</name>
<Snippet>豐樂路二段/豐樂一街口</Snippet>
<description>豐樂路二段/豐樂一街口</description>
<Point>
<coordinates>120.680490,24.194700,0.000000</coordinates>
</Point>
</Placemark>
<Placemark>
<name>舊社公園</name>
<Snippet>松竹路二段/北屯路口</Snippet>
<description>松竹路二段/北屯路口</description>
<Point>
<coordinates>120.7014,24.18206,0.000000</coordinates>
</Point>
</Placemark>
<Placemark>
<name>三分埔公園</name>
<Snippet>崇德五路 / 河北東街口</Snippet>
<description>崇德五路 / 河北東街口</description>
<Point>
<coordinates>120.68521,24.17922,0.000000</coordinates>
</Point>
</Placemark>
<Placemark>
<name>蓬勃運動中心</name>
<Snippet>山西路二段/安順北一街口</Snippet>
<description>山西路二段/安順北一街口</description>
<Point>
<coordinates>120.67659,24.1764,0.000000</coordinates>
</Point>
</Placemark>
<Placemark>
<name>太原停車場</name>
<Snippet>太原路三段/建和路一段路口</Snippet>
<description>太原路三段/建和路一段路口</description>
<Point>
<coordinates>120.721460,24.162640,0.000000</coordinates>
</Point>
</Placemark>
<Placemark>
<name>軍功公園</name>
<Snippet>松竹路一段/軍功路二段口</Snippet>
<description>松竹路一段/軍功路二段口</description>
<Point>
<coordinates>120.71982,24.18200,0.000000</coordinates>
</Point>
</Placemark>
<Placemark>
<name>和福公園</name>
<Snippet>軍福十路/和福路口</Snippet>
<description>軍福十路/和福路口</description>
<Point>
<coordinates>120.72337,24.17032,0.000000</coordinates>
</Point>
</Placemark>
<Placemark>
<name>豐田公園</name>
<Snippet>遼寧路一段/大連路三段口</Snippet>
<description>遼寧路一段/大連路三段口</description>
<Point>
<coordinates>120.69675,24.17392,0.000000</coordinates>
</Point>
</Placemark>
<Placemark>
<name>經補庫停車場</name>
<Snippet>東山路一段381-42號對面</Snippet>
<description>東山路一段381-42號對面</description>
<Point>
<coordinates>120.73184,24.17692,0.000000</coordinates>
</Point>
</Placemark>
<Placemark>
<name>仁美公園</name>
<Snippet>崇德路三段/崇德十二路口</Snippet>
<description>崇德路三段/崇德十二路口</description>
<Point>
<coordinates>120.68614,24.19044,0.000000</coordinates>
</Point>
</Placemark>
<Placemark>
<name>文心國小</name>
<Snippet>綏遠路二段/文心路四段口</Snippet>
<description>綏遠路二段/文心路四段口</description>
<Point>
<coordinates>120.68178,24.1732,0.000000</coordinates>
</Point>
</Placemark>
<Placemark>
<name>景美公園</name>
<Snippet>旱溪東路三段/軍福十八路口</Snippet>
<description>旱溪東路三段/軍福十八路口</description>
<Point>
<coordinates>120.71103,24.17818,0.000000</coordinates>
</Point>
</Placemark>
<Placemark>
<name>新興國小</name>
<Snippet>新興路/同榮路7巷口</Snippet>
<description>新興路/同榮路7巷口</description>
<Point>
<coordinates>120.66225,24.19443,0.000000</coordinates>
</Point>
</Placemark>
<Placemark>
<name>廍興公園</name>
<Snippet>樹孝路/太順路口</Snippet>
<description>樹孝路/太順路口</description>
<Point>
<coordinates>120.72069,24.15934,0.000000</coordinates>
</Point>
</Placemark>
<Placemark>
<name>松竹國小</name>
<Snippet>崇德六路一段/昌平路二段4巷口</Snippet>
<description>崇德六路一段/昌平路二段4巷口</description>
<Point>
<coordinates>120.69046,24.18041,0.000000</coordinates>
</Point>
</Placemark>
<Placemark>
<name>老樹公園</name>
<Snippet>經貿一路/順平路口</Snippet>
<description>經貿一路/順平路口</description>
<Point>
<coordinates>120.66228,24.18259,0.000000</coordinates>
</Point>
</Placemark>
<Placemark>
<name>軍功國小</name>
<Snippet>軍功路一段/軍福十三路口</Snippet>
<description>軍功路一段/軍福十三路口</description>
<Point>
<coordinates>120.71896,24.17294,0.000000</coordinates>
</Point>
</Placemark>
</Folder>
<Folder>
<name>東區</name>
<Placemark>
<name>力行國小</name>
<Snippet>力行路/進化路口</Snippet>
<description>力行路/進化路口</description>
<Point>
<coordinates>120.693931,24.151573,0.000000</coordinates>
</Point>
</Placemark>
<Placemark>
<name>臺中國小</name>
<Snippet>信義街/臺中路口</Snippet>
<description>信義街/臺中路口</description>
<Point>
<coordinates>120.68447,24.13201,0.000000</coordinates>
</Point>
</Placemark>
<Placemark>
<name>大智國小</name>
<Snippet>建德街/大智路口</Snippet>
<description>建德街/大智路口</description>
<Point>
<coordinates>120.690590,24.129560,0.000000</coordinates>
</Point>
</Placemark>
<Placemark>
<name>東峰公園</name>
<Snippet>仁和路/立德東街口</Snippet>
<description>仁和路/立德東街口</description>
<Point>
<coordinates>120.688270,24.126270,0.000000</coordinates>
</Point>
</Placemark>
<Placemark>
<name>建成樂業路口</name>
<Snippet>建成路/樂業路口</Snippet>
<description>建成路/樂業路口</description>
<Point>
<coordinates>120.696690,24.138580,0.000000</coordinates>
</Point>
</Placemark>
<Placemark>
<name>中興大學附屬高農</name>
<Snippet>台中路/建中街口</Snippet>
<description>台中路/建中街口</description>
<Point>
<coordinates>120.68491,24.12861,0.000000</coordinates>
</Point>
</Placemark>
<Placemark>
<name>東英停車場</name>
<Snippet>東英九街 / 一心街口</Snippet>
<description>東英九街 / 一心街口</description>
<Point>
<coordinates>120.70209,24.14212,0.000000</coordinates>
</Point>
</Placemark>
<Placemark>
<name>樂利公園</name>
<Snippet>十甲東路/東英六街口</Snippet>
<description>十甲東路/東英六街口</description>
<Point>
<coordinates>120.70752,24.13885,0.000000</coordinates>
</Point>
</Placemark>
<Placemark>
<name>進業公園</name>
<Snippet>十甲東路/東英十五街口</Snippet>
<description>十甲東路/東英十五街口</description>
<Point>
<coordinates>120.70959,24.1463,0.000000</coordinates>
</Point>
</Placemark>
<Placemark>
<name>旱溪停車場</name>
<Snippet>旱溪街/德興一街口</Snippet>
<description>旱溪街/德興一街口</description>
<Point>
<coordinates>120.70916,24.14082,0.000000</coordinates>
</Point>
</Placemark>
<Placemark>
<name>進德國小</name>
<Snippet>進化路/福明街口</Snippet>
<description>進化路/福明街口</description>
<Point>
<coordinates>120.69429,24.14607,0.000000</coordinates>
</Point>
</Placemark>
<Placemark>
<name>長福公園</name>
<Snippet>長福路/旱溪東路一段口</Snippet>
<description>長福路/旱溪東路一段口</description>
<Point>
<coordinates>120.70205,24.14402,0.000000</coordinates>
</Point>
</Placemark>
<Placemark>
<name>八德武德街口</name>
<Snippet>八德街/武德街口(停車場東南側)</Snippet>
<description>八德街/武德街口(停車場東南側)</description>
<Point>
<coordinates>120.68755,24.13887,0.000000</coordinates>
</Point>
</Placemark>
</Folder>
<Folder>
<name>南區</name>
<Placemark>
<name>崇倫公園</name>
<Snippet>南屯路一段/美村路二段口</Snippet>
<description>南屯路一段/美村路二段口</description>
<Point>
<coordinates>120.661146,24.132292,0.000000</coordinates>
</Point>
</Placemark>
<Placemark>
<name>國立中興大學</name>
<Snippet>興大路/仁德街口</Snippet>
<description>興大路/仁德街口</description>
<Point>
<coordinates>120.677198,24.12391,0.000000</coordinates>
</Point>
</Placemark>
<Placemark>
<name>忠孝國光路口</name>
<Snippet>忠孝路/國光路口</Snippet>
<description>忠孝路/國光路口</description>
<Point>
<coordinates>120.67816,24.12811,0.000000</coordinates>
</Point>
</Placemark>
<Placemark>
<name>忠明南美村南路口</name>
<Snippet>忠明南路/美村南路口</Snippet>
<description>忠明南路/美村南路口</description>
<Point>
<coordinates>120.667140,24.118980,0.000000</coordinates>
</Point>
</Placemark>
<Placemark>
<name>忠明南復興路口</name>
<Snippet>忠明南路/復興路二段口</Snippet>
<description>忠明南路/復興路二段口</description>
<Point>
<coordinates>120.661330,24.121750,0.000000</coordinates>
</Point>
</Placemark>
<Placemark>
<name>積善公園</name>
<Snippet>大明路/興大路口</Snippet>
<description>大明路/興大路口</description>
<Point>
<coordinates>120.671370,24.114900,0.000000</coordinates>
</Point>
</Placemark>
<Placemark>
<name>永興公園</name>
<Snippet>工學路/工學一街口</Snippet>
<description>工學路/工學一街口</description>
<Point>
<coordinates>120.664880,24.116740,0.000000</coordinates>
</Point>
</Placemark>
<Placemark>
<name>臺中高工</name>
<Snippet>高工路/工學二街口</Snippet>
<description>高工路/工學二街口</description>
<Point>
<coordinates>120.662010,24.113280,0.000000</coordinates>
</Point>
</Placemark>
<Placemark>
<name>國立公共資訊圖書館</name>
<Snippet>五權南路100號前</Snippet>
<description>五權南路100號前</description>
<Point>
<coordinates>120.669690,24.127450,0.000000</coordinates>
</Point>
</Placemark>
<Placemark>
<name>樹德停車場</name>
<Snippet>德富路146巷/德吉街口</Snippet>
<description>德富路146巷/德吉街口</description>
<Point>
<coordinates>120.654350,24.118510,0.000000</coordinates>
</Point>
</Placemark>
<Placemark>
<name>中山醫學大學</name>
<Snippet>建國北路一段/文心南路口</Snippet>
<description>建國北路一段/文心南路口</description>
<Point>
<coordinates>120.652710,24.122120,0.000000</coordinates>
</Point>
</Placemark>
<Placemark>
<name>民興公園</name>
<Snippet>建國北路二段100巷/建國北路二段口</Snippet>
<description>建國北路二段100巷/建國北路二段口</description>
<Point>
<coordinates>120.664560,24.128620,0.000000</coordinates>
</Point>
</Placemark>
<Placemark>
<name>江川公園</name>
<Snippet>復興園路/永東街口</Snippet>
<description>復興園路/永東街口</description>
<Point>
<coordinates>120.671590,24.124400,0.000000</coordinates>
</Point>
</Placemark>
<Placemark>
<name>樹義公園</name>
<Snippet>大慶街一段257-3巷/福田三街口</Snippet>
<description>大慶街一段257-3巷/福田三街口</description>
<Point>
<coordinates>120.65512,24.11114,0.000000</coordinates>
</Point>
</Placemark>
<Placemark>
<name>樹仁公園</name>
<Snippet>福田二街/樹義路口</Snippet>
<description>福田二街/樹義路口</description>
<Point>
<coordinates>120.65258,24.10885,0.000000</coordinates>
</Point>
</Placemark>
<Placemark>
<name>樹義園道</name>
<Snippet>工學北路/樹義二街口</Snippet>
<description>工學北路/樹義二街口</description>
<Point>
<coordinates>120.656520,24.115330,0.000000</coordinates>
</Point>
</Placemark>
<Placemark>
<name>南平公園</name>
<Snippet>和昌街/福新街口</Snippet>
<description>和昌街/福新街口</description>
<Point>
<coordinates>120.668510,24.124690,0.000000</coordinates>
</Point>
</Placemark>
<Placemark>
<name>台中文化創意產業園區</name>
<Snippet>復興路三段/民生路口</Snippet>
<description>復興路三段/民生路口</description>
<Point>
<coordinates>120.68052,24.13333,0.000000</coordinates>
</Point>
</Placemark>
<Placemark>
<name>復興停車場</name>
<Snippet>復興路三段/國光路口</Snippet>
<description>復興路三段/國光路口</description>
<Point>
<coordinates>120.67634,24.13175,0.000000</coordinates>
</Point>
</Placemark>
<Placemark>
<name>崇倫國中</name>
<Snippet>忠明南路/ 南屯路一段口(崇倫公園南側入口處)</Snippet>
<description>忠明南路/ 南屯路一段口(崇倫公園南側入口處)</description>
<Point>
<coordinates>120.65741,24.13259,0.000000</coordinates>
</Point>
</Placemark>
<Placemark>
<name>健康公園附設停車場</name>
<Snippet>五權南路/五權南路380巷(西北側)</Snippet>
<description>五權南路/五權南路380巷(西北側)</description>
<Point>
<coordinates>120.66988,24.12096,0.000000</coordinates>
</Point>
</Placemark>
</Folder>
<Folder>
<name>太平區</name>
<Placemark>
<name>新福公園</name>
<Snippet>旱溪東路二段/中山路四段口</Snippet>
<description>旱溪東路二段/中山路四段口</description>
<Point>
<coordinates>120.701390,24.150890,0.000000</coordinates>
</Point>
</Placemark>
<Placemark>
<name>祥順運動公園</name>
<Snippet>宜昌路87巷/宜昌路口</Snippet>
<description>宜昌路87巷/宜昌路口</description>
<Point>
<coordinates>120.712510,24.137470,0.000000</coordinates>
</Point>
</Placemark>
<Placemark>
<name>新平國小</name>
<Snippet>育德路162巷/樹孝路274巷9弄口</Snippet>
<description>育德路162巷/樹孝路274巷9弄口</description>
<Point>
<coordinates>120.719750,24.154360,0.000000</coordinates>
</Point>
</Placemark>
<Placemark>
<name>一江橋</name>
<Snippet>光興路/長龍路一段口</Snippet>
<description>光興路/長龍路一段口</description>
<Point>
<coordinates>120.737260,24.131210,0.000000</coordinates>
</Point>
</Placemark>
<Placemark>
<name>新平立體停車場</name>
<Snippet>中山路三段/樹孝路口</Snippet>
<description>中山路三段/樹孝路口</description>
<Point>
<coordinates>120.715410,24.149030,0.000000</coordinates>
</Point>
</Placemark>
<Placemark>
<name>長億公園</name>
<Snippet>永成北路/永成北路151巷口</Snippet>
<description>永成北路/永成北路151巷口</description>
<Point>
<coordinates>120.714780,24.117760,0.000000</coordinates>
</Point>
</Placemark>
<Placemark>
<name>宜昌兒童公園</name>
<Snippet>十甲路615號對面</Snippet>
<description>十甲路615號對面</description>
<Point>
<coordinates>120.713220,24.144420,0.000000</coordinates>
</Point>
</Placemark>
<Placemark>
<name>太平區運動場</name>
<Snippet>永平路一段/中興東路口</Snippet>
<description>永平路一段/中興東路口</description>
<Point>
<coordinates>120.720470,24.130940,0.000000</coordinates>
</Point>
</Placemark>
<Placemark>
<name>坪林森林公園</name>
<Snippet>中山路二段/中山路二段477巷口</Snippet>
<description>中山路二段/中山路二段477巷口</description>
<Point>
<coordinates>120.72839,24.15006,0.000000</coordinates>
</Point>
</Placemark>
<Placemark>
<name>中平公園</name>
<Snippet>中平九街/太平路176巷口</Snippet>
<description>中平九街/太平路176巷口</description>
<Point>
<coordinates>120.7207,24.12079,0.000000</coordinates>
</Point>
</Placemark>
<Placemark>
<name>新光國小</name>
<Snippet>新興路/新福路口</Snippet>
<description>新興路/新福路口</description>
<Point>
<coordinates>120.70703,24.15943,0.000000</coordinates>
</Point>
</Placemark>
</Folder>
<Folder>
<name>豐原區</name>
<Placemark>
<name>豐原高商</name>
<Snippet>圓環南路/中山路口</Snippet>
<description>圓環南路/中山路口</description>
<Point>
<coordinates>120.713820,24.245290,0.000000</coordinates>
</Point>
</Placemark>
<Placemark>
<name>豐原廟東夜市</name>
<Snippet>中正路212巷/信義街口</Snippet>
<description>中正路212巷/信義街口</description>
<Point>
<coordinates>120.718640,24.252590,0.000000</coordinates>
</Point>
</Placemark>
<Placemark>
<name>豐原火車站</name>
<Snippet>中正路/東北街口</Snippet>
<description>中正路/東北街口</description>
<Point>
<coordinates>120.722650,24.254520,0.000000</coordinates>
</Point>
</Placemark>
<Placemark>
<name>豐原地政事務所</name>
<Snippet>西安街/興安街口</Snippet>
<description>西安街/興安街口</description>
<Point>
<coordinates>120.714410,24.249030,0.000000</coordinates>
</Point>
</Placemark>
<Placemark>
<name>豐原高中</name>
<Snippet>水源路/水源路129巷口</Snippet>
<description>水源路/水源路129巷口</description>
<Point>
<coordinates>120.74168,24.255730,0.000000</coordinates>
</Point>
</Placemark>
<Placemark>
<name>陽明大樓</name>
<Snippet>陽明街/陽明街66巷口</Snippet>
<description>陽明街/陽明街66巷口</description>
<Point>
<coordinates>120.721200,24.24698,0.000000</coordinates>
</Point>
</Placemark>
<Placemark>
<name>消防公園</name>
<Snippet>仁洲街/豐原大道七段口</Snippet>
<description>仁洲街/豐原大道七段口</description>
<Point>
<coordinates>120.71317,24.26208,0.000000</coordinates>
</Point>
</Placemark>
<Placemark>
<name>豐原國中</name>
<Snippet>三豐路一段/豐北街口</Snippet>
<description>三豐路一段/豐北街口</description>
<Point>
<coordinates>120.71971,24.26123,0.000000</coordinates>
</Point>
</Placemark>
<Placemark>
<name>豐原區公所</name>
<Snippet>市政路/育仁路口</Snippet>
<description>市政路/育仁路口</description>
<Point>
<coordinates>120.71827,24.24243,0.000000</coordinates>
</Point>
</Placemark>
<Placemark>
<name>南陽公園</name>
<Snippet>永康路/永康路211巷口</Snippet>
<description>永康路/永康路211巷口</description>
<Point>
<coordinates>120.72528,24.24111,0.000000</coordinates>
</Point>
</Placemark>
</Folder>
<Folder>
<name>大甲區</name>
<Placemark>
<name>大甲鎮瀾宮</name>
<Snippet>鎮瀾街/中華街口</Snippet>
<description>鎮瀾街/中華街口</description>
<Point>
<coordinates>120.623670,24.344500,0.000000</coordinates>
</Point>
</Placemark>
<Placemark>
<name>大甲區壘球場</name>
<Snippet>錦上街/雁門路口</Snippet>
<description>錦上街/雁門路口</description>
<Point>
<coordinates>120.626030,24.354310,0.000000</coordinates>
</Point>
</Placemark>
<Placemark>
<name>大甲區公所</name>
<Snippet>新政路/三民路口</Snippet>
<description>新政路/三民路口</description>
<Point>
<coordinates>120.622640,24.349810,0.000000</coordinates>
</Point>
</Placemark>
<Placemark>
<name>大甲火車站</name>
<Snippet>中山路一段/蔣公路口</Snippet>
<description>中山路一段/蔣公路口</description>
<Point>
<coordinates>120.626880,24.344180,0.000000</coordinates>
</Point>
</Placemark>
<Placemark>
<name>大甲體育場</name>
<Snippet>大安港路/大安港路53巷口</Snippet>
<description>大安港路/大安港路53巷口</description>
<Point>
<coordinates>120.615759,24.350388,0.000000</coordinates>
</Point>
</Placemark>
<Placemark>
<name>大甲高中</name>
<Snippet>水源路/中山路一段口</Snippet>
<description>水源路/中山路一段口</description>
<Point>
<coordinates>120.62265,24.34222,0.000000</coordinates>
</Point>
</Placemark>
</Folder>
<Folder>
<name>大里區</name>
<Placemark>
<name>大里國際觀光夜市</name>
<Snippet>中興路二段/東榮路一段口</Snippet>
<description>中興路二段/東榮路一段口</description>
<Point>
<coordinates>120.69004,24.110290,0.000000</coordinates>
</Point>
</Placemark>
<Placemark>
<name>環河公園</name>
<Snippet>永隆六街/爽文路口</Snippet>
<description>永隆六街/爽文路口</description>
<Point>
<coordinates>120.67397,24.11269,0.000000</coordinates>
</Point>
</Placemark>
<Placemark>
<name>中興大學附屬高中</name>
<Snippet>益民路二段/益民路二段230巷口</Snippet>
<description>益民路二段/益民路二段230巷口</description>
<Point>
<coordinates>120.68375,24.10991,0.000000</coordinates>
</Point>
</Placemark>
<Placemark>
<name>廣停六停車場</name>
<Snippet>永隆七街/永隆路口</Snippet>
<description>永隆七街/永隆路口</description>
<Point>
<coordinates>120.67607,24.1136,0.000000</coordinates>
</Point>
</Placemark>
<Placemark>
<name>大里運動公園</name>
<Snippet>國光路一段/大里路口</Snippet>
<description>國光路一段/大里路口</description>
<Point>
<coordinates>120.68267,24.10028,0.000000</coordinates>
</Point>
</Placemark>
<Placemark>
<name>國光花市停車場</name>
<Snippet>德芳南路/德芳南三街口</Snippet>
<description>德芳南路/德芳南三街口</description>
<Point>
<coordinates>120.683660,24.103850,0.000000</coordinates>
</Point>
</Placemark>
<Placemark>
<name>廣停八停車場</name>
<Snippet>德芳南路/德芳南一街口</Snippet>
<description>德芳南路/德芳南一街口</description>
<Point>
<coordinates>120.68731,24.10251,0.000000</coordinates>
</Point>
</Placemark>
<Placemark>
<name>環保公園</name>
<Snippet>德芳路二段/永大街口</Snippet>
<description>德芳路二段/永大街口</description>
<Point>
<coordinates>120.67967,24.10456,0.000000</coordinates>
</Point>
</Placemark>
<Placemark>
<name>大里圖書館</name>
<Snippet>中興路一段/中湖路口</Snippet>
<description>中興路一段/中湖路口</description>
<Point>
<coordinates>120.69557,24.08778,0.000000</coordinates>
</Point>
</Placemark>
<Placemark>
<name>臺中市纖維工藝博物館</name>
<Snippet>勝利二路口/德芳南一街</Snippet>
<description>勝利二路口/德芳南一街</description>
<Point>
<coordinates>120.68707,24.10036,0.000000</coordinates>
</Point>
</Placemark>
<Placemark>
<name>長春兒童公園</name>
<Snippet>長春路78巷/長春路78巷31弄口</Snippet>
<description>長春路78巷/長春路78巷31弄口</description>
<Point>
<coordinates>120.691380,24.08933,0.000000</coordinates>
</Point>
</Placemark>
<Placemark>
<name>立新國中</name>
<Snippet>立新二街/自立路口</Snippet>
<description>立新二街/自立路口</description>
<Point>
<coordinates>120.69877,24.10441,0.000000</coordinates>
</Point>
</Placemark>
<Placemark>
<name>大里區公所</name>
<Snippet>新興路/大新街口</Snippet>
<description>新興路/大新街口</description>
<Point>
<coordinates>120.67711,24.09934,0.000000</coordinates>
</Point>
</Placemark>
<Placemark>
<name>大明兒童公園</name>
<Snippet>大明路366巷/大明路口</Snippet>
<description>大明路366巷/大明路口</description>
<Point>
<coordinates>120.67852,24.11513,0.000000</coordinates>
</Point>
</Placemark>
<Placemark>
<name>十九甲健康公園</name>
<Snippet>立元路/甲園街口</Snippet>
<description>立元路/甲園街口</description>
<Point>
<coordinates>120.69476,24.09988,0.000000</coordinates>
</Point>
</Placemark>
<Placemark>
<name>內新國小</name>
<Snippet>日新路/新仁路二段口</Snippet>
<description>日新路/新仁路二段口</description>
<Point>
<coordinates>120.69517,24.11141,0.000000</coordinates>
</Point>
</Placemark>
<Placemark>
<name>國光公園(二二八廣場)</name>
<Snippet>興大南街/永隆街口</Snippet>
<description>興大南街/永隆街口</description>
<Point>
<coordinates>120.67669,24.1165,0.000000</coordinates>
</Point>
</Placemark>
<Placemark>
<name>進士公園</name>
<Snippet>爽文路/德芳路三段口</Snippet>
<description>爽文路/德芳路三段口</description>
<Point>
<coordinates>120.67473,24.1026,0.000000</coordinates>
</Point>
</Placemark>
<Placemark>
<name>青年公園</name>
<Snippet>公園街/公園街421巷口</Snippet>
<description>公園街/公園街421巷口</description>
<Point>
<coordinates>120.69363,24.08492,0.000000</coordinates>
</Point>
</Placemark>
</Folder>
<Folder>
<name>烏日區</name>
<Placemark>
<name>兒二公園</name>
<Snippet>中山路二段/新興路口</Snippet>
<description>中山路二段/新興路口</description>
<Point>
<coordinates>120.616910,24.106030,0.000000</coordinates>
</Point>
</Placemark>
<Placemark>
<name>烏日圖書館</name>
<Snippet>長春街/長春街317巷口</Snippet>
<description>長春街/長春街317巷口</description>
<Point>
<coordinates>120.6371,24.10924,0.000000</coordinates>
</Point>
</Placemark>
<Placemark>
<name>自治公園</name>
<Snippet>公園路/五光路口</Snippet>
<description>公園路/五光路口</description>
<Point>
<coordinates>120.628350,24.101880,0.000000</coordinates>
</Point>
</Placemark>
<Placemark>
<name>烏日區公所</name>
<Snippet>新興路/光日路口</Snippet>
<description>新興路/光日路口</description>
<Point>
<coordinates>120.62355,24.10461,0.000000</coordinates>
</Point>
</Placemark>
</Folder>
<Folder>
<name>霧峰區</name>
<Placemark>
<name>霧峰農工</name>
<Snippet>中正路1222號前</Snippet>
<description>中正路1222號前</description>
<Point>
<coordinates>120.69985,24.07319,0.000000</coordinates>
</Point>
</Placemark>
<Placemark>
<name>霧峰區公所</name>
<Snippet>大同路/民生路口</Snippet>
<description>大同路/民生路口</description>
<Point>
<coordinates>120.70012,24.0615,0.000000</coordinates>
</Point>
</Placemark>
<Placemark>
<name>立法院中部辦公室</name>
<Snippet>中正路/蘭生街口</Snippet>
<description>中正路/蘭生街口</description>
<Point>
<coordinates>120.69742,24.05584,0.000000</coordinates>
</Point>
</Placemark>
</Folder>
<Folder>
<name>清水區</name>
<Placemark>
<name>清水牛罵頭停車場</name>
<Snippet>光華路/光華路137巷口</Snippet>
<description>光華路/光華路137巷口</description>
<Point>
<coordinates>120.5742,24.26851,0.000000</coordinates>
</Point>
</Placemark>
<Placemark>
<name>臺中市港區藝術中心</name>
<Snippet>鎮政路/忠貞路口</Snippet>
<description>鎮政路/忠貞路口</description>
<Point>
<coordinates>120.55791,24.26935,0.000000</coordinates>
</Point>
</Placemark>
<Placemark>
<name>清水運動場</name>
<Snippet>五權路/五權二街口</Snippet>
<description>五權路/五權二街口</description>
<Point>
<coordinates>120.55876,24.27824,0.000000</coordinates>
</Point>
</Placemark>
</Folder>
<Folder>
<name>潭子區</name>
<Placemark>
<name>潭子國小</name>
<Snippet>中山路二段391巷/中山路二段口</Snippet>
<description>中山路二段391巷/中山路二段口</description>
<Point>
<coordinates>120.70494,24.21325,0.000000</coordinates>
</Point>
</Placemark>
<Placemark>
<name>臺中加工出口區</name>
<Snippet>中山路二段/南環路口</Snippet>
<description>中山路二段/南環路口</description>
<Point>
<coordinates>120.70539,24.21707,0.000000</coordinates>
</Point>
</Placemark>
</Folder>
</Document>
</kml>
